[
    {
        "id": 1,
        "name": "Ursa",
        "location": "Assagao",
        "type": "flowmeter",
        "position": "1",
        "coordinates": {"latitude": 15.6090, "longitude": 73.7496}
    },
    {
        "id": 2,
        "name": "Capricorn",
        "location": "Aldona",
        "type": "flowmeter",
        "position": "1.1",
        "coordinates": {"latitude": 15.6390, "longitude": 73.7580}
    },
    {
        "id": 3,
        "name": "Orion",
        "location": "Saligao",
        "type": "flowmeter",
        "position": "1.1.1",
        "coordinates": {"latitude": 15.5534, "longitude": 73.7836}
    },
    {
        "id": 4,
        "name": "Taurus",
        "location": "Mapusa",
        "type": "flowmeter",
        "position": "1.1.2",
        "coordinates": {"latitude": 15.6450, "longitude": 73.8080}
    },
    {
        "id": 5,
        "name": "Gemini",
        "location": "Pernem",
        "type": "flowmeter",
        "position": "1.2",
        "coordinates": {"latitude": 15.6650, "longitude": 73.7800}
    },
    {
        "id": 6,
        "name": "Cancer",
        "location": "Cortalim",
        "type": "flowmeter",
        "position": "1.3",
        "coordinates": {"latitude": 15.6750, "longitude": 73.7900}
    },
    {
        "id": 7,
        "name": "Leo",
        "location": "Verem",
        "type": "flowmeter",
        "position": "2",
        "coordinates": {"latitude": 15.6200, "longitude": 73.7750}
    },
    {
        "id": 8,
        "name": "Virgo",
        "location": "Nagoa",
        "type": "flowmeter",
        "position": "2.1",
        "coordinates": {"latitude": 15.6250, "longitude": 73.7850}
    },
    {
        "id": 9,
        "name": "Libra",
        "location": "Calangute",
        "type": "flowmeter",
        "position": "2.1.1",
        "coordinates": {"latitude": 15.6350, "longitude": 73.7900}
    },
    {
        "id": 10,
        "name": "Scorpio",
        "location": "Anjuna",
        "type": "flowmeter",
        "position": "2.2",
        "coordinates": {"latitude": 15.6550, "longitude": 73.8000}
    },
    {
        "id": 11,
        "name": "Sagittarius",
        "location": "Assagao",
        "type": "flowmeter",
        "position": "2.3",
        "coordinates": {"latitude": 15.6700, "longitude": 73.7900}
    },
    {
        "id": 12,
        "name": "Capricorn",
        "location": "Aldona",
        "type": "flowmeter",
        "position": "3",
        "coordinates": {"latitude": 15.6400, "longitude": 73.7600}
    },
    {
        "id": 13,
        "name": "Aquarius",
        "location": "Bambolim",
        "type": "flowmeter",
        "position": "3.1",
        "coordinates": {"latitude": 15.6500, "longitude": 73.7700}
    },
    {
        "id": 14,
        "name": "Pisces",
        "location": "Verem",
        "type": "flowmeter",
        "position": "3.1.1",
        "coordinates": {"latitude": 15.6600, "longitude": 73.7800}
    },
    {
        "id": 15,
        "name": "Aries",
        "location": "Sangolda",
        "type": "flowmeter",
        "position": "3.2",
        "coordinates": {"latitude": 15.6700, "longitude": 73.7900}
    },
    {
        "id": 16,
        "name": "Taurus",
        "location": "Mapusa",
        "type": "flowmeter",
        "position": "3.3",
        "coordinates": {"latitude": 15.6800, "longitude": 73.8000}
    },
    {
        "id": 17,
        "name": "Gemini",
        "location": "Pernem",
        "type": "flowmeter",
        "position": "4",
        "coordinates": {"latitude": 15.6900, "longitude": 73.8100}
    },
    {
        "id": 18,
        "name": "Cancer",
        "location": "Cortalim",
        "type": "flowmeter",
        "position": "4.1",
        "coordinates": {"latitude": 15.7000, "longitude": 73.8200}
    },
    {
        "id": 19,
        "name": "Leo",
        "location": "Verem",
        "type": "flowmeter",
        "position": "4.1.1",
        "coordinates": {"latitude": 15.7100, "longitude": 73.8300}
    },
    {
        "id": 20,
        "name": "Virgo",
        "location": "Nagoa",
        "type": "flowmeter",
        "position": "4.2",
        "coordinates": {"latitude": 15.7200, "longitude": 73.8400}
    }
]
