[
    {
        "id": 1,
        "name": "Ursa",
        "location": "Assagao",
        "type": "flowmeter",
        "position": "1",
        "coordinates": {"latitude": 15.6090, "longitude": 73.7496}
    },
    {
        "id": 2,
        "name": "Capricorn",
        "location": "Aldona",
        "type": "flowmeter",
        "position": "1.1",
        "coordinates": {"latitude": 15.6367, "longitude": 73.8578}
    },
    {
        "id": 3,
        "name": "Orion",
        "location": "Saligao",
        "type": "flowmeter",
        "position": "1.1.1",
        "coordinates": {"latitude": 15.5534, "longitude": 73.7836}
    },
    {
        "id": 4,
        "name": "Taurus",
        "location": "Mapusa",
        "type": "flowmeter",
        "position": "1.1.2",
        "coordinates": {"latitude": 15.6450, "longitude": 73.8080}
    },
    {
        "id": 5,
        "name": "Gemini",
        "location": "Pernem",
        "type": "flowmeter",
        "position": "1.1.2.1",
        "coordinates": {"latitude": 15.6587, "longitude": 73.8345}
    },
    {
        "id": 6,
        "name": "Cancer",
        "location": "Cortalim",
        "type": "flowmeter",
        "position": "1.1.2.2",
        "coordinates": {"latitude": 15.6653, "longitude": 73.8042}
    },
    {
        "id": 7,
        "name": "Leo",
        "location": "Verem",
        "type": "flowmeter",
        "position": "1.1.3",
        "coordinates": {"latitude": 15.6230, "longitude": 73.7741}
    },
    {
        "id": 8,
        "name": "Virgo",
        "location": "Nagoa",
        "type": "flowmeter",
        "position": "1.1.3.1",
        "coordinates": {"latitude": 15.6318, "longitude": 73.7880}
    },
    {
        "id": 9,
        "name": "Libra",
        "location": "Calangute",
        "type": "flowmeter",
        "position": "1.2",
        "coordinates": {"latitude": 15.5523, "longitude": 73.7825}
    },
    {
        "id": 10,
        "name": "Scorpio",
        "location": "Anjuna",
        "type": "flowmeter",
        "position": "1.2.1",
        "coordinates": {"latitude": 15.5528, "longitude": 73.7523}
    },
    {
        "id": 11,
        "name": "Sagittarius",
        "location": "Assagao",
        "type": "flowmeter",
        "position": "1.2.1.1",
        "coordinates": {"latitude": 15.6095, "longitude": 73.7490}
    },
    {
        "id": 12,
        "name": "Capricorn",
        "location": "Aldona",
        "type": "flowmeter",
        "position": "1.2.1.2",
        "coordinates": {"latitude": 15.6360, "longitude": 73.8570}
    },
    {
        "id": 13,
        "name": "Aquarius",
        "location": "Bambolim",
        "type": "flowmeter",
        "position": "1.2.2",
        "coordinates": {"latitude": 15.5507, "longitude": 73.8034}
    },
    {
        "id": 14,
        "name": "Pisces",
        "location": "Verem",
        "type": "flowmeter",
        "position": "1.2.2.1",
        "coordinates": {"latitude": 15.6235, "longitude": 73.7750}
    },
    {
        "id": 15,
        "name": "Aries",
        "location": "Sangolda",
        "type": "flowmeter",
        "position": "1.2.3",
        "coordinates": {"latitude": 15.5613, "longitude": 73.7785}
    },
    {
        "id": 16,
        "name": "Taurus",
        "location": "Mapusa",
        "type": "flowmeter",
        "position": "1.2.3.1",
        "coordinates": {"latitude": 15.6455, "longitude": 73.8090}
    },
    {
        "id": 17,
        "name": "Gemini",
        "location": "Pernem",
        "type": "flowmeter",
        "position": "1.3",
        "coordinates": {"latitude": 15.6582, "longitude": 73.8340}
    },
    {
        "id": 18,
        "name": "Cancer",
        "location": "Cortalim",
        "type": "flowmeter",
        "position": "1.3.1",
        "coordinates": {"latitude": 15.6658, "longitude": 73.8045}
    },
    {
        "id": 19,
        "name": "Leo",
        "location": "Verem",
        "type": "flowmeter",
        "position": "1.3.1.1",
        "coordinates": {"latitude": 15.6238, "longitude": 73.7745}
    },
    {
        "id": 20,
        "name": "Virgo",
        "location": "Nagoa",
        "type": "flowmeter",
        "position": "1.3.2",
        "coordinates": {"latitude": 15.6320, "longitude": 73.7885}
    },
    {
        "id": 21,
        "name": "Libra",
        "location": "Calangute",
        "type": "flowmeter",
        "position": "1.3.2.1",
        "coordinates": {"latitude": 15.5525, "longitude": 73.7820}
    },
    {
        "id": 22,
        "name": "Scorpio",
        "location": "Anjuna",
        "type": "flowmeter",
        "position": "1.3.2.2",
        "coordinates": {"latitude": 15.5530, "longitude": 73.7528}
    },
    {
        "id": 23,
        "name": "Sagittarius",
        "location": "Assagao",
        "type": "flowmeter",
        "position": "1.3.3",
        "coordinates": {"latitude": 15.6100, "longitude": 73.7495}
    },
    {
        "id": 24,
        "name": "Capricorn",
        "location": "Aldona",
        "type": "flowmeter",
        "position": "1.3.3.1",
        "coordinates": {"latitude": 15.6365, "longitude": 73.8575}
    },
    {
        "id": 25,
        "name": "Aquarius",
        "location": "Bambolim",
        "type": "flowmeter",
        "position": "1.3.4",
        "coordinates": {"latitude": 15.5505, "longitude": 73.8037}
    },
    {
        "id": 26,
        "name": "Pisces",
        "location": "Verem",
        "type": "flowmeter",
        "position": "1.3.4.1",
        "coordinates": {"latitude": 15.6240, "longitude": 73.7755}
    },
    {
        "id": 27,
        "name": "Aries",
        "location": "Sangolda",
        "type": "flowmeter",
        "position": "1.4",
        "coordinates": {"latitude": 15.5615, "longitude": 73.7790}
    },
    {
        "id": 28,
        "name": "Taurus",
        "location": "Mapusa",
        "type": "flowmeter",
        "position": "2",
        "coordinates": {"latitude": 15.6465, "longitude": 73.8100}
    },
    {
        "id": 29,
        "name": "Gemini",
        "location": "Pernem",
        "type": "flowmeter",
        "position": "2.1",
        "coordinates": {"latitude": 15.6585, "longitude": 73.8342}
    },
    {
        "id": 30,
        "name": "Cancer",
        "location": "Cortalim",
        "type": "flowmeter",
        "position": "2.1.1",
        "coordinates": {"latitude": 15.6660, "longitude": 73.8050}
    },
    {
        "id": 31,
        "name": "Leo",
        "location": "Verem",
        "type": "flowmeter",
        "position": "2.1.1.1",
        "coordinates": {"latitude": 15.6245, "longitude": 73.7758}
    },
    {
        "id": 32,
        "name": "Virgo",
        "location": "Nagoa",
        "type": "flowmeter",
        "position": "2.1.2",
        "coordinates": {"latitude": 15.6325, "longitude": 73.7890}
    },
    {
        "id": 33,
        "name": "Libra",
        "location": "Calangute",
        "type": "flowmeter",
        "position": "2.1.2.1",
        "coordinates": {"latitude": 15.5530, "longitude": 73.7823}
    },
    {
        "id": 34,
        "name": "Scorpio",
        "location": "Anjuna",
        "type": "flowmeter",
        "position": "2.1.2.2",
        "coordinates": {"latitude": 15.5532, "longitude": 73.7530}
    },
    {
        "id": 35,
        "name": "Sagittarius",
        "location": "Assagao",
        "type": "flowmeter",
        "position": "2.2",
        "coordinates": {"latitude": 15.6105, "longitude": 73.7498}
    },
    {
        "id": 36,
        "name": "Capricorn",
        "location": "Aldona",
        "type": "flowmeter",
        "position": "2.2.1",
        "coordinates": {"latitude": 15.6370, "longitude": 73.8580}
    },
    {
        "id": 37,
        "name": "Aquarius",
        "location": "Bambolim",
        "type": "flowmeter",
        "position": "2.2.1.1",
        "coordinates": {"latitude": 15.5510, "longitude": 73.8040}
    },
    {
        "id": 38,
        "name": "Pisces",
        "location": "Verem",
        "type": "flowmeter",
        "position": "2.2.2",
        "coordinates": {"latitude": 15.6248, "longitude": 73.7760}
    },
    {
        "id": 39,
        "name": "Aries",
        "location": "Sangolda",
        "type": "flowmeter",
        "position": "2.2.2.1",
        "coordinates": {"latitude": 15.5620, "longitude": 73.7795}
    },
    {
        "id": 40,
        "name": "Taurus",
        "location": "Mapusa",
        "type": "flowmeter",
        "position": "2.3",
        "coordinates": {"latitude": 15.6460, "longitude": 73.8105}
    }
]
