[
    {
        "id": 1,
        "name": "Ursa",
        "location": "Assagao",
        "type": "flowmeter",
        "position": "1",
        "coordinates": {"latitude": 15.6090, "longitude": 73.7496}
    },
    {
        "id": 2,
        "name": "Capricorn",
        "location": "Aldona",
        "type": "flowmeter",
        "position": "1.1",
        "coordinates": {"latitude": 15.5890, "longitude": 73.7000}
    },
    {
        "id": 3,
        "name": "Orion",
        "location": "Saligao",
        "type": "flowmeter",
        "position": "1.1.1",
        "coordinates": {"latitude": 15.5534, "longitude": 73.7836}
    },
    {
        "id": 4,
        "name": "Taurus",
        "location": "Mapusa",
        "type": "flowmeter",
        "position": "1.1.2",
        "coordinates": {"latitude": 15.6400, "longitude": 73.8080}
    },
    {
        "id": 5,
        "name": "Gemini",
        "location": "Pernem",
        "type": "flowmeter",
        "position": "1.2",
        "coordinates": {"latitude": 15.6650, "longitude": 73.7400}
    },
    {
        "id": 6,
        "name": "Cancer",
        "location": "Cortalim",
        "type": "flowmeter",
        "position": "1.3",
        "coordinates": {"latitude": 15.7000, "longitude": 73.8000}
    },
    {
        "id": 7,
        "name": "Leo",
        "location": "Verem",
        "type": "flowmeter",
        "position": "2",
        "coordinates": {"latitude": 15.5900, "longitude": 73.7200}
    },
    {
        "id": 8,
        "name": "Virgo",
        "location": "Nagoa",
        "type": "flowmeter",
        "position": "2.1",
        "coordinates": {"latitude": 15.6250, "longitude": 73.7550}
    },
    {
        "id": 9,
        "name": "Libra",
        "location": "Calangute",
        "type": "flowmeter",
        "position": "2.1.1",
        "coordinates": {"latitude": 15.6350, "longitude": 73.7900}
    },
    {
        "id": 10,
        "name": "Scorpio",
        "location": "Anjuna",
        "type": "flowmeter",
        "position": "2.2",
        "coordinates": {"latitude": 15.6800, "longitude": 73.8000}
    },
    {
        "id": 11,
        "name": "Sagittarius",
        "location": "Assagao",
        "type": "flowmeter",
        "position": "2.3",
        "coordinates": {"latitude": 15.6700, "longitude": 73.8300}
    },
    {
        "id": 12,
        "name": "Capricorn",
        "location": "Aldona",
        "type": "flowmeter",
        "position": "3",
        "coordinates": {"latitude": 15.6200, "longitude": 73.7200}
    },
    {
        "id": 13,
        "name": "Aquarius",
        "location": "Bambolim",
        "type": "flowmeter",
        "position": "3.1",
        "coordinates": {"latitude": 15.6700, "longitude": 73.7500}
    },
    {
        "id": 14,
        "name": "Pisces",
        "location": "Verem",
        "type": "flowmeter",
        "position": "3.1.1",
        "coordinates": {"latitude": 15.6400, "longitude": 73.7800}
    },
    {
        "id": 15,
        "name": "Aries",
        "location": "Sangolda",
        "type": "flowmeter",
        "position": "3.2",
        "coordinates": {"latitude": 15.6700, "longitude": 73.7900}
    },
    {
        "id": 16,
        "name": "Taurus",
        "location": "Mapusa",
        "type": "flowmeter",
        "position": "3.3",
        "coordinates": {"latitude": 15.6400, "longitude": 73.8100}
    },
    {
        "id": 17,
        "name": "Gemini",
        "location": "Pernem",
        "type": "flowmeter",
        "position": "4",
        "coordinates": {"latitude": 15.6650, "longitude": 73.6800}
    },
    {
        "id": 18,
        "name": "Cancer",
        "location": "Cortalim",
        "type": "flowmeter",
        "position": "4.1",
        "coordinates": {"latitude": 15.7000, "longitude": 73.7300}
    },
    {
        "id": 19,
        "name": "Leo",
        "location": "Verem",
        "type": "flowmeter",
        "position": "4.1.1",
        "coordinates": {"latitude": 15.7100, "longitude": 73.7400}
    },
    {
        "id": 20,
        "name": "Virgo",
        "location": "Nagoa",
        "type": "flowmeter",
        "position": "4.2",
        "coordinates": {"latitude": 15.7200, "longitude": 73.7500}
    },
    {
        "id": 21,
        "name": "Andromeda",
        "location": "Vasco da Gama",
        "type": "flowmeter",
        "position": "4.3",
        "coordinates": {"latitude": 15.3860, "longitude": 73.8192}
    },
    {
        "id": 22,
        "name": "Antares",
        "location": "Margao",
        "type": "flowmeter",
        "position": "5",
        "coordinates": {"latitude": 15.2900, "longitude": 73.9500}
    },
    {
        "id": 23,
        "name": "Betelgeuse",
        "location": "Canacona",
        "type": "flowmeter",
        "position": "5.1",
        "coordinates": {"latitude": 15.0160, "longitude": 74.0420}
    },
    {
        "id": 24,
        "name": "Rigel",
        "location": "Panaji",
        "type": "flowmeter",
        "position": "5.2",
        "coordinates": {"latitude": 15.4909, "longitude": 73.8278}
    },
    {
        "id": 25,
        "name": "Altair",
        "location": "Vasco da Gama",
        "type": "flowmeter",
        "position": "5.3",
        "coordinates": {"latitude": 15.4000, "longitude": 73.8300}
    },
    {
        "id": 26,
        "name": "Vega",
        "location": "Ponda",
        "type": "flowmeter",
        "position": "6",
        "coordinates": {"latitude": 15.4100, "longitude": 74.0200}
    },
    {
        "id": 27,
        "name": "Sirius",
        "location": "Mormugao",
        "type": "flowmeter",
        "position": "6.1",
        "coordinates": {"latitude": 15.3900, "longitude": 73.8100}
    },
    {
        "id": 28,
        "name": "Canopus",
        "location": "Bicholim",
        "type": "flowmeter",
        "position": "6.2",
        "coordinates": {"latitude": 15.4980, "longitude": 73.9000}
    },
    {
        "id": 29,
        "name": "Procyon",
        "location": "Colva",
        "type": "flowmeter",
        "position": "6.3",
        "coordinates": {"latitude": 15.2810, "longitude": 73.9228}
    },
    {
        "id": 30,
        "name": "Achernar",
        "location": "Quepem",
        "type": "flowmeter",
        "position": "7",
        "coordinates": {"latitude": 15.2125, "longitude": 74.0770}
    },
    {
        "id": 31,
        "name": "Fomalhaut",
        "location": "Sanguem",
        "type": "flowmeter",
        "position": "7.1",
        "coordinates": {"latitude": 15.2183, "longitude": 74.0578}
    },
    {
        "id": 32,
        "name": "Deneb",
        "location": "Sanquelim",
        "type": "flowmeter",
        "position": "7.2",
        "coordinates": {"latitude": 15.5583, "longitude": 74.0150}
    },
    {
        "id": 33,
        "name": "Spica",
        "location": "Siolim",
        "type": "flowmeter",
        "position": "7.3",
        "coordinates": {"latitude": 15.6200, "longitude": 73.7530}
    },
    {
        "id": 34,
        "name": "Regulus",
        "location": "Mandrem",
        "type": "flowmeter",
        "position": "8",
        "coordinates": {"latitude": 15.6798, "longitude": 73.7055}
    },
    {
        "id": 35,
        "name": "Polaris",
        "location": "Morjim",
        "type": "flowmeter",
        "position": "8.1",
        "coordinates": {"latitude": 15.6667, "longitude": 73.7170}
    },
    {
        "id": 36,
        "name": "Mimosa",
        "location": "Dabolim",
        "type": "flowmeter",
        "position": "8.2",
        "coordinates": {"latitude": 15.3867, "longitude": 73.8403}
    },
    {
        "id": 37,
        "name": "Gacrux",
        "location": "Marmagao",
        "type": "flowmeter",
        "position": "8.3",
        "coordinates": {"latitude": 15.4040, "longitude": 73.8110}
    },
    {
        "id": 38,
        "name": "Rigil Kentaurus",
        "location": "Palolem",
        "type": "flowmeter",
        "position": "9",
        "coordinates": {"latitude": 15.0094, "longitude": 74.0232}
    },
    {
        "id": 39,
        "name": "Hadar",
        "location": "Canacona",
        "type": "flowmeter",
        "position": "9.1",
        "coordinates": {"latitude": 15.0220, "longitude": 74.0360}
    },
    {
        "id": 40,
        "name": "Arcturus",
        "location": "Agonda",
        "type": "flowmeter",
        "position": "9.2",
        "coordinates": {"latitude": 15.0321, "longitude": 74.0412}
    }
]
